{"type":"FeatureCollection","features":[{"type":"Feature","properties":{"name":"Paris"},"geometry":{"coordinates":[2.34485072651421,48.86510516139114],"type":"Point"},"id":1},{"type":"Feature","properties":{"name":"London"},"geometry":{"coordinates":[-0.12784651741671382,51.51204878738062],"type":"Point"},"id":1},{"type":"Feature","properties":{"name":"Edinburgh"},"geometry":{"coordinates":[-3.1990359295344604,55.96245420000815],"type":"Point"},"id":2},{"type":"Feature","properties":{"name":"København"},"geometry":{"coordinates":[12.546552512324922,55.695211816424234],"type":"Point"},"id":3},{"type":"Feature","properties":{"name":"Berlin"},"geometry":{"coordinates":[13.38031901273311,52.54885411128049],"type":"Point"},"id":4},{"type":"Feature","properties":{"name":"Praha"},"geometry":{"coordinates":[14.443320215571674,50.10794335047538],"type":"Point"},"id":5},{"type":"Feature","properties":{"name":"Wien"},"geometry":{"coordinates":[16.353959194487658,48.200546767074144],"type":"Point"},"id":6},{"type":"Feature","properties":{"name":"Budapest"},"geometry":{"coordinates":[19.044963255794357,47.52040729834533],"type":"Point"},"id":7},{"type":"Feature","properties":{"name":"Athènes"},"geometry":{"coordinates":[23.708148165874206,38.10606889525653],"type":"Point"},"id":8},{"type":"Feature","properties":{"name":"İstanbul "},"geometry":{"coordinates":[29.022634097119578,41.06017840770872],"type":"Point"},"id":9},{"type":"Feature","properties":{"name":"Milano"},"geometry":{"coordinates":[9.195125564300753,45.470529196192615],"type":"Point"},"id":10},{"type":"Feature","properties":{"name":"Firenze"},"geometry":{"coordinates":[11.245410732957453,43.78116612211173],"type":"Point"},"id":11},{"type":"Feature","properties":{"name":"Smyrne"},"geometry":{"coordinates":[27.130244862056315,38.4212107272823],"type":"Point"},"id":12},{"type":"Feature","properties":{"name":"Göreme"},"geometry":{"coordinates":[34.82880796701568,38.64263327167055],"type":"Point"},"id":13},{"type":"Feature","properties":{"name":"Samarkand"},"geometry":{"coordinates":[66.97588053811046,39.67459513172042],"type":"Point"},"id":14},{"type":"Feature","properties":{"name":"Toshkent "},"geometry":{"coordinates":[69.27507327912085,41.3021100757112],"type":"Point"},"id":15},{"type":"Feature","properties":{"name":"Бишкек"},"geometry":{"coordinates":[74.63980272595603,42.87946987944497],"type":"Point"},"id":16},{"type":"Feature","properties":{"name":"Чолпоната"},"geometry":{"coordinates":[77.06387561754718,42.642743833042346],"type":"Point"},"id":17},{"type":"Feature","properties":{"name":"Каракол"},"geometry":{"coordinates":[78.3963310305731,42.49270257581529],"type":"Point"},"id":18},{"type":"Feature","properties":{"name":"नई दिल्ली"},"geometry":{"coordinates":[77.18640011869724,28.609565766003357],"type":"Point"},"id":19},{"type":"Feature","properties":{"name":"आगरा"},"geometry":{"coordinates":[78.01725582383727,27.176788887714196],"type":"Point"},"id":20},{"type":"Feature","properties":{"name":"जयपुर"},"geometry":{"coordinates":[75.82866030785812,26.924118082981764],"type":"Point"},"id":21},{"type":"Feature","properties":{"name":"जोधपुर"},"geometry":{"coordinates":[73.02700403274514,26.31463252433933],"type":"Point"},"id":22},{"type":"Feature","properties":{"name":"हैदराबाद"},"geometry":{"coordinates":[78.4696323344424,17.40567546898899],"type":"Point"},"id":23},{"type":"Feature","properties":{"name":"เชียงใหม่"},"geometry":{"coordinates":[98.98046796109429,18.822114189803372],"type":"Point"},"id":24},{"type":"Feature","properties":{"name":"เชียงราย"},"geometry":{"coordinates":[99.82945098547276,19.920983389031534],"type":"Point"},"id":25},{"type":"Feature","properties":{"name":"กรุงเทพมหานครฯ"},"geometry":{"coordinates":[100.46906381086387,13.747538148043304],"type":"Point"},"id":26},{"type":"Feature","properties":{"name":"เกาะช้าง"},"geometry":{"coordinates":[102.33705643546938,12.046791296675863],"type":"Point"},"id":27},{"type":"Feature","properties":{"name":"เพชรบุรี"},"geometry":{"coordinates":[99.93811759111162,13.102984610007965],"type":"Point"},"id":28},{"type":"Feature","properties":{"name":"กาญจนบุรี"},"geometry":{"coordinates":[99.52569291676684,14.021858462293295],"type":"Point"},"id":29},{"type":"Feature","properties":{"name":"ភ្នំពេញ"},"geometry":{"coordinates":[104.92755346266534,11.568277072254148],"type":"Point"},"id":30},{"type":"Feature","properties":{"name":"ក្រុងសៀមរាប"},"geometry":{"coordinates":[103.8583530774032,13.368522920111488],"type":"Point"},"id":31},{"type":"Feature","properties":{"name":"ក្រុងបាត់ដំបង"},"geometry":{"coordinates":[103.19170480763324,13.107003610443087],"type":"Point"},"id":32},{"type":"Feature","properties":{"name":"កំពត"},"geometry":{"coordinates":[104.18125742795587,10.610121328069638],"type":"Point"},"id":33},{"type":"Feature","properties":{"name ":"Hô Chi Minh"},"geometry":{"coordinates":[106.69990835758693,10.785307712661293],"type":"Point"},"id":34},{"type":"Feature","properties":{"name ":"Vũng Tàu"},"geometry":{"coordinates":[107.0759592820869,10.348040037846431],"type":"Point"},"id":35},{"type":"Feature","properties":{"name":"Đà Lạt"},"geometry":{"coordinates":[108.43630505191152,11.941764319663932],"type":"Point"},"id":36},{"type":"Feature","properties":{"name":"hoi an"},"geometry":{"coordinates":[108.33030742666278,15.879506904826428],"type":"Point"},"id":37},{"type":"Feature","properties":{"name":"Huế"},"geometry":{"coordinates":[107.5871941191715,16.463501655018533],"type":"Point"},"id":38},{"type":"Feature","properties":{"name":"Hanoï"},"geometry":{"coordinates":[105.85191834255431,21.031955150242453],"type":"Point"},"id":39},{"type":"Feature","properties":{"name":"Maynila"},"geometry":{"coordinates":[120.97492429182654,14.588480112057866],"type":"Point"},"id":40},{"type":"Feature","properties":{"name":"Banaue"},"geometry":{"coordinates":[121.06072275186824,16.91236481927055],"type":"Point"},"id":41},{"type":"Feature","properties":{"name":"Cebu "},"geometry":{"coordinates":[123.89699541358556,10.30092941303495],"type":"Point"},"id":42},{"type":"Feature","properties":{"name":"Dumaguete"},"geometry":{"coordinates":[123.30548708608654,9.30985291574531],"type":"Point"},"id":43},{"type":"Feature","properties":{"name":"Panglao"},"geometry":{"coordinates":[123.74731017893981,9.578480371817392],"type":"Point"},"id":44},{"type":"Feature","properties":{"name":"Siquijor"},"geometry":{"coordinates":[123.51390529360026,9.215466765409815],"type":"Point"},"id":45},{"type":"Feature","properties":{"name":"Los Angeles"},"geometry":{"coordinates":[-118.23964788002787,34.053402293204584],"type":"Point"},"id":46},{"type":"Feature","properties":{"name":"Bogotá"},"geometry":{"coordinates":[-74.0900192086981,4.732304533283255],"type":"Point"},"id":47},{"type":"Feature","properties":{"name":"Cali"},"geometry":{"coordinates":[-76.51464610241307,3.4471071058810026],"type":"Point"},"id":48},{"type":"Feature","properties":{"name":"Medellín"},"geometry":{"coordinates":[-75.59596660823487,6.260526306961367],"type":"Point"},"id":49},{"type":"Feature","properties":{"name":"Pereira"},"geometry":{"coordinates":[-75.69578069383113,4.820463704709212],"type":"Point"},"id":50},{"type":"Feature","properties":{"name":"Salento"},"geometry":{"coordinates":[-75.56994626371583,4.637959442718511],"type":"Point"},"id":51},{"type":"Feature","properties":{"name":"Filandia"},"geometry":{"coordinates":[-75.65824767327776,4.674915075994647],"type":"Point"},"id":52},{"type":"Feature","properties":{"Name":"Cartagena"},"geometry":{"coordinates":[-75.54949902232279,10.4234952864674],"type":"Point"},"id":53},{"type":"Feature","properties":{"name":"Santa Marta"},"geometry":{"coordinates":[-74.1962363419287,11.231389578598652],"type":"Point"},"id":54},{"type":"Feature","properties":{"name":"San José"},"geometry":{"coordinates":[-84.10813668464908,9.940314075839268],"type":"Point"},"id":55},{"type":"Feature","properties":{"name":"La Fortuna"},"geometry":{"coordinates":[-84.64457014233872,10.471381827263656],"type":"Point"},"id":56},{"type":"Feature","properties":{"name":"Monteverde"},"geometry":{"coordinates":[-84.80859162124335,10.304397225078162],"type":"Point"},"id":57},{"type":"Feature","properties":{"name":"Grenada"},"geometry":{"coordinates":[-85.95721557352874,11.934273668246433],"type":"Point"},"id":58},{"type":"Feature","properties":{"name":"Leon"},"geometry":{"coordinates":[-86.87710282746522,12.434517615215924],"type":"Point"},"id":59},{"type":"Feature","properties":{"name":"Las Penitas"},"geometry":{"coordinates":[-87.02139898284398,12.36121586281331],"type":"Point"},"id":60},{"type":"Feature","properties":{"name":"Quetzaltenango"},"geometry":{"coordinates":[-91.52015098200684,14.84609156934063],"type":"Point"},"id":61},{"type":"Feature","properties":{"city":"Antigua"},"geometry":{"coordinates":[-90.73294503730057,14.557892533479418],"type":"Point"},"id":62},{"type":"Feature","properties":{"name":"San Pedro La Laguna"},"geometry":{"coordinates":[-91.27314557251167,14.69170543859164],"type":"Point"},"id":63},{"type":"Feature","properties":{"name":"Flores"},"geometry":{"coordinates":[-89.89169367080972,16.929719871646398],"type":"Point"},"id":64},{"type":"Feature","properties":{"name":"Lanquin"},"geometry":{"coordinates":[-89.98114228767723,15.575836265068475],"type":"Point"},"id":65},{"type":"Feature","properties":{"name":"Tuxtla Gutierrez"},"geometry":{"coordinates":[-93.12472757211572,16.76740108216319],"type":"Point"},"id":66},{"type":"Feature","properties":{"name":"Palenque"},"geometry":{"coordinates":[-91.98016763785978,17.50887823907304],"type":"Point"},"id":67},{"type":"Feature","properties":{"name":"San Christobal de las Casas"},"geometry":{"coordinates":[-92.64120394406257,16.734580745103386],"type":"Point"},"id":68},{"type":"Feature","properties":{"name":"Boca del Cielo"},"geometry":{"coordinates":[-93.70660787903071,15.881187269123572],"type":"Point"},"id":69},{"type":"Feature","properties":{"name":"Oaxaca"},"geometry":{"coordinates":[-96.72811739679054,17.059442527204638],"type":"Point"},"id":70},{"type":"Feature","properties":{"name":"Ciudad de México"},"geometry":{"coordinates":[-99.13370070240774,19.4301948693047],"type":"Point"},"id":71},{"type":"Feature","properties":{"name":"北京"},"geometry":{"coordinates":[116.39176130743738,39.905721691127155],"type":"Point"},"id":72},{"type":"Feature","properties":{"name":"서울"},"geometry":{"coordinates":[126.97859664374727,37.56505980221384],"type":"Point"},"id":73},{"type":"Feature","properties":{"name":"수원시"},"geometry":{"coordinates":[127.02919336001224,37.26328365811483],"type":"Point"},"id":74},{"type":"Feature","properties":{"name":"청주"},"geometry":{"coordinates":[127.4896229643785,36.64114246823904],"type":"Point"},"id":75},{"type":"Feature","properties":{"name":"부산"},"geometry":{"coordinates":[129.074707498988,35.17932349145431],"type":"Point"},"id":76},{"type":"Feature","properties":{"name":"大阪市"},"geometry":{"coordinates":[135.5034072029262,34.67519123002519],"type":"Point"},"id":77},{"type":"Feature","properties":{"name":"京都市"},"geometry":{"coordinates":[135.7700376952452,35.00783748940796],"type":"Point"},"id":78},{"type":"Feature","properties":{"name":"東京都"},"geometry":{"coordinates":[139.7069756810847,35.677627309385244],"type":"Point"},"id":79},{"type":"Feature","properties":{"name":"臺北市"},"geometry":{"coordinates":[121.54550753816699,25.042473061369137],"type":"Point"},"id":80},{"type":"Feature","properties":{"name":"新竹"},"geometry":{"coordinates":[120.9676564158039,24.804560792898087],"type":"Point"},"id":81},{"type":"Feature","properties":{"name":"臺中市"},"geometry":{"coordinates":[120.63961301982431,24.158495383324322],"type":"Point"},"id":82},{"type":"Feature","properties":{"name":"臺南市"},"geometry":{"coordinates":[120.18707374090417,22.98996168414338],"type":"Point"},"id":83},{"type":"Feature","properties":{"name ":"嘉義市"},"geometry":{"coordinates":[120.45183893228034,23.48151896049248],"type":"Point"},"id":84},{"type":"Feature","properties":{"name":" 高雄"},"geometry":{"coordinates":[120.30122881013176,22.620091394854555],"type":"Point"},"id":85},{"type":"Feature","properties":{"name":"墾丁"},"geometry":{"coordinates":[120.80024497093166,21.945242767543903],"type":"Point"},"id":86},{"type":"Feature","properties":{"name":"花蓮市"},"geometry":{"coordinates":[121.60930009969348,23.977740163742823],"type":"Point"},"id":87},{"type":"Feature","properties":{"name":"台東"},"geometry":{"coordinates":[121.14745343611327,22.755673683267815],"type":"Point"},"id":88},{"type":"Feature","properties":{"name":"綠島"},"geometry":{"coordinates":[121.48887816435285,22.660318769628063],"type":"Point"},"id":89},{"type":"Feature","properties":{"name":"小琉球"},"geometry":{"coordinates":[120.37411435589138,22.34377016249725],"type":"Point"},"id":90},{"type":"Feature","properties":{"name":"基隆市"},"geometry":{"coordinates":[121.74000798281537,25.13159713624981],"type":"Point"},"id":91},{"type":"Feature","properties":{"name":"宜蘭"},"geometry":{"coordinates":[121.72095616685715,24.742019637020093],"type":"Point"},"id":92},{"type":"Feature","properties":{"name":"日月潭"},"geometry":{"coordinates":[120.90270250432422,23.864960177607117],"type":"Point"},"id":93},{"type":"Feature","properties":{"name":"古北口镇"},"geometry":{"coordinates":[117.15650230192836,40.69053071670797],"type":"Point"},"id":94}]}